City_ID,City,Lat,Lng,Max Temp,Humidity,Cloudiness,Wind Speed,Country,Date
0,port-aux-francais,-49.35,70.2167,5.77,97,100,15.37,TF,1723762700
1,college,64.8569,-147.8028,20.99,44,75,4.12,US,1723762701
2,invercargill,-46.4,168.35,8.34,86,100,0.45,NZ,1723762703
3,avarua,-21.2078,-159.775,22.03,56,20,4.12,CK,1723762704
4,fuling,29.7022,107.3919,24.68,87,14,0.44,CN,1723762707
5,butterworth,5.3991,100.3638,27.02,94,20,1.54,MY,1723762708
6,carnarvon,-24.8667,113.6333,16.62,76,0,4.57,AU,1723762709
7,jorpeland,59.0225,6.0408,13.97,97,100,5.34,NO,1723762710
8,udachny,66.4167,112.4,10.72,72,100,0.24,RU,1723762712
9,adamstown,-25.066,-130.1015,20.61,69,54,2.52,PN,1723762713
10,grytviken,-54.2811,-36.5092,-7.4,65,11,4.91,GS,1723762714
11,piacabucu,-10.4056,-36.4344,23.85,73,34,4.37,BR,1723762717
12,hirara,24.8,125.2833,26.92,89,97,1.54,JP,1723762718
13,kijang,35.2442,129.2139,25.85,70,69,4.15,KR,1723762721
14,makokou,0.5738,12.8642,21.63,84,98,1.69,GA,1723762724
15,selfoss,63.9331,-20.9971,10.02,95,100,3.85,IS,1723762725
16,ushuaia,-54.8,-68.3,3.81,65,0,1.03,AR,1723762525
17,haiku-pauwela,20.9219,-156.3051,29.03,73,40,9.77,US,1723762727
18,geraldton,-28.7667,114.6,10.23,93,100,6.17,AU,1723762730
19,tiksi,71.6872,128.8694,11.82,55,16,6.99,RU,1723762731
20,klaksvik,62.2266,-6.589,10.67,84,75,13.08,FO,1723762734
21,papatowai,-46.5619,169.4708,6.95,82,100,4.21,NZ,1723762735
22,bredasdorp,-34.5322,20.0403,6.41,87,20,0.88,ZA,1723762739
23,ust-nera,64.5667,143.2,12.54,52,0,0.5,RU,1723762743
24,afaahiti,-17.75,-149.2833,24.53,68,4,0.3,PF,1723762745
25,mitsamiouli,-11.3847,43.2844,25.22,69,4,2.46,KM,1723762746
26,miringa,10.7312,12.1463,19.95,96,100,4.08,NG,1723762747
27,creston,41.0586,-94.3614,27.98,69,20,2.57,US,1723762748
28,keflavik,64.0049,-22.5624,8.24,100,100,7.2,IS,1723762750
29,remire-montjoly,4.9167,-52.2667,28.02,78,0,3.09,GF,1723762751
30,isafjordur,66.0755,-23.124,6.06,96,100,4.14,IS,1723762753
31,tashtagol,52.7657,87.8894,15.25,78,15,1.9,RU,1723762755
32,tazovsky,67.4667,78.7,11.85,98,100,5.84,RU,1723762756
33,emerald,-23.5333,148.1667,22.61,55,0,3.89,AU,1723762757
34,waitangi,-43.9535,-176.5597,11.57,91,90,3.58,NZ,1723762760
35,rosarito,32.3333,-117.0333,27.51,66,29,2.84,MX,1723762761
36,jamestown,42.097,-79.2353,26.8,44,0,0.0,US,1723762762
37,woolgoolga,-30.1106,153.2007,19.93,87,90,2.61,AU,1723762766
38,clewiston,26.7542,-80.9337,28.87,75,75,6.75,US,1723762676
39,yellowknife,62.456,-114.3525,13.56,89,100,5.66,CA,1723762769
40,iqaluit,63.7506,-68.5145,13.85,44,40,8.75,CA,1723762771
41,ust'-ordynskiy,52.805,104.7508,12.97,78,3,2.18,RU,1723762772
42,sanliurfa,37.2128,38.7817,29.93,51,0,1.94,TR,1723762775
43,huarmey,-10.0681,-78.1522,18.06,77,63,4.43,PE,1723762776
44,elko,41.0002,-115.5012,29.53,13,0,8.49,US,1723762618
45,akureyri,65.6835,-18.0878,9.96,93,100,5.14,IS,1723762779
46,pavlohrad,48.5167,35.8667,16.38,58,21,1.82,UA,1723762782
47,anadyr,64.75,177.4833,12.28,50,0,5.0,RU,1723762783
48,aleysk,52.4926,82.7822,18.98,83,86,3.91,RU,1723762784
49,inari,68.906,27.0288,17.03,70,100,4.62,FI,1723762785
50,berezovyy,51.6667,135.7,15.9,79,100,1.4,RU,1723762787
51,salinas,36.6777,-121.6555,22.13,74,0,3.09,US,1723762788
52,ust'-ilimsk,58.0006,102.6619,14.31,73,0,1.19,RU,1723762521
53,bilibino,68.0546,166.4372,1.85,100,100,2.66,RU,1723762790
54,hermanus,-34.4187,19.2345,4.89,78,24,1.27,ZA,1723762792
55,vilyuchinsk,52.9306,158.4028,16.15,85,58,2.04,RU,1723762796
56,benalla,-36.55,145.9833,11.48,87,66,2.41,AU,1723762797
57,kingston,17.997,-76.7936,29.53,79,20,3.09,JM,1723762798
58,kodiak,57.79,-152.4072,11.25,98,100,7.75,US,1723762800
59,olonkinbyen,70.9221,-8.7187,5.51,99,70,4.83,SJ,1723762805
60,ancud,-41.8697,-73.8203,6.79,83,16,1.94,CL,1723762587
61,dawesville,30.9224,-84.0091,32.23,51,0,3.6,US,1723762815
62,enewetak,11.3474,162.3373,29.02,74,95,8.07,MH,1723762820
63,manokwari,-0.8667,134.0833,27.32,71,99,1.8,ID,1723762824
64,bethel,41.3712,-73.414,26.91,74,73,0.12,US,1723762775
65,harper,4.375,-7.7169,24.03,82,65,3.42,LR,1723762830
66,upington,-28.4478,21.2561,12.21,14,1,2.57,ZA,1723762832
67,bambari,5.768,20.6757,20.63,97,91,0.59,CF,1723762836
68,shenjiamen,29.9576,122.298,27.23,82,9,0.79,CN,1723762837
69,kapa'a,22.0752,-159.319,26.38,81,100,4.63,US,1723762767
70,muzaffarabad,34.37,73.4711,23.98,87,100,1.29,PK,1723762839
71,kalmunai,7.4167,81.8167,26.4,86,100,5.27,LK,1723762841
72,sapri,40.0751,15.6296,27.3,46,0,1.67,IT,1723762842
73,riberalta,-10.9833,-66.1,32.11,48,0,0.0,BO,1723762843
74,sisimiut,66.9395,-53.6735,3.33,92,100,3.6,GL,1723762844
75,vernon,50.2581,-119.2691,34.96,19,16,1.54,CA,1723762846
76,bowie,33.4501,-94.4335,35.12,57,100,2.02,US,1723762847
77,jatai,-17.8814,-51.7144,25.81,22,0,1.86,BR,1723762848
78,labuan,5.2767,115.2417,26.2,94,20,1.03,MY,1723762849
79,whitehorse,60.7161,-135.0538,18.94,36,20,1.54,CA,1723762852
80,behshahr,36.6923,53.5526,24.97,70,72,1.71,IR,1723762853
81,isangel,-19.55,169.2667,24.06,78,75,5.66,VU,1723762855
82,chenaran,36.6455,59.1212,23.39,56,0,0.47,IR,1723762856
83,plavsk,53.7094,37.2919,11.72,73,2,3.13,RU,1723762857
84,laibin,23.7,109.2667,25.09,90,87,1.36,CN,1723762858
85,petropavlovsk-kamchatsky,53.0452,158.6483,15.33,36,20,12.0,RU,1723762860
86,xinzhuang,39.0203,117.3239,27.01,89,94,1.0,CN,1723762861
87,lebu,-37.6167,-73.65,8.8,86,9,5.24,CL,1723762864
88,bangil,-7.5994,112.8186,21.99,73,20,1.32,ID,1723762866
89,khandyga,62.6667,135.6,13.01,60,100,1.08,RU,1723762868
90,berdigestyakh,62.0989,126.6992,12.6,48,100,1.09,RU,1723762869
91,rongelap,11.1635,166.8941,28.51,79,25,8.66,MH,1723762870
92,lihue,21.9789,-159.3672,25.97,84,100,4.63,US,1723762871
93,tamandare,-8.7597,-35.1047,23.92,76,28,5.04,BR,1723762875
94,margate,51.3813,1.3862,19.93,83,79,0.45,GB,1723762876
95,georgetown,5.4112,100.3354,26.96,93,20,1.54,MY,1723762879
96,arlington,32.7357,-97.1081,39.15,40,0,4.63,US,1723762860
97,ilulissat,69.2167,-51.1,4.01,93,75,5.66,GL,1723762882
98,revda,56.801,59.9303,8.12,99,36,2.12,RU,1723762883
99,saipan,15.1355,145.701,28.04,78,99,4.24,MP,1723762886
100,majene,-3.5403,118.9707,23.85,80,24,3.11,ID,1723762888
101,talnakh,69.4865,88.3972,12.49,53,46,1.64,RU,1723762891
102,weno,7.4515,151.8468,28.95,71,43,2.88,FM,1723762892
103,westport,41.1415,-73.3579,28.28,65,0,1.54,US,1723762894
104,naama,33.2667,-0.3167,24.33,35,28,8.89,DZ,1723762896
105,vera,-29.4593,-60.2126,20.12,44,22,3.42,AR,1723762897
106,hailar,49.2,119.7,21.26,63,5,2.79,CN,1723762898
107,beterou,9.1992,2.2586,23.12,90,95,1.53,BJ,1723762901
108,eydhafushi,5.1033,73.0708,27.18,84,100,10.07,MV,1723762902
109,andergrove,-21.0833,149.1833,20.81,76,0,2.13,AU,1723762905
110,collie,-33.3667,116.15,10.74,81,100,1.7,AU,1723762907
111,zaozersk,69.4005,32.4476,15.76,77,86,3.85,RU,1723762910
112,jwaneng,-24.6004,24.7303,11.93,12,0,3.62,BW,1723762914
113,hamilton,39.1834,-84.5333,30.8,45,0,4.47,US,1723762915
114,polyarnyy,69.1989,33.4478,15.29,74,72,5.13,RU,1723762917
115,faratsiho,-19.4,46.95,8.9,88,14,3.21,MG,1723762918
116,uturoa,-16.7333,-151.4333,25.71,68,20,0.89,PF,1723762919
117,rasht,37.2808,49.5832,23.9,83,75,3.09,IR,1723762920
118,sos'va,59.1766,61.8558,9.35,98,98,1.54,RU,1723762926
119,tazacorte,28.629,-17.9293,22.54,92,40,6.69,ES,1723762928
120,namibe,-15.1961,12.1522,17.68,88,39,4.08,AO,1723762931
121,albany,42.6001,-73.9662,25.19,71,36,3.67,US,1723762783
122,kruisfontein,-34.0033,24.7314,11.55,54,96,3.25,ZA,1723762933
123,chui,-33.6971,-53.4616,11.0,84,50,1.55,UY,1723762911
124,mesquite,32.7668,-96.5992,39.15,39,0,4.63,US,1723762937
125,nemuro,43.3236,145.575,16.83,92,0,5.05,JP,1723762938
126,kaoma,-14.7833,24.8,18.42,25,2,3.76,ZM,1723762940
127,itamaraca,-7.7478,-34.8256,23.77,82,46,5.68,BR,1723762942
128,fisterra,42.9049,-9.2629,18.86,79,0,6.64,ES,1723762944
129,ta'izz,13.5,44.0,23.47,66,99,1.08,YE,1723762945
130,nabire,-3.3667,135.4833,25.24,89,100,0.95,ID,1723762946
131,znamenskoye,57.1281,73.8282,12.91,97,99,2.59,RU,1723762949
132,nikolayevsk-on-amure,53.1406,140.73,11.21,91,100,2.43,RU,1723762950
133,tofol,5.3248,163.0078,24.51,97,100,8.6,FM,1723762951
134,taro,-8.3862,115.28,16.7,96,68,0.22,ID,1723762953
135,saint-philippe,-21.3585,55.7679,21.62,83,11,2.57,RE,1723762954
136,longyearbyen,78.2186,15.6401,9.91,93,75,4.12,SJ,1723762683
137,maxixe,-23.8597,35.3472,18.0,76,0,3.06,MZ,1723762958
138,christchurch,-43.5333,172.6333,14.12,68,40,4.12,NZ,1723762508
139,xinqing,48.2333,129.5,20.85,87,24,0.53,CN,1723762963
140,tralee,52.2704,-9.7026,13.22,71,70,2.61,IE,1723762965
141,ulmeni,47.4667,23.3,22.3,56,0,1.05,RO,1723762966
142,dunedin,-45.8742,170.5036,8.22,82,100,1.79,NZ,1723762967
143,abadeh,31.1608,52.6506,26.45,25,49,1.56,IR,1723762969
144,narrabri,-30.3167,149.7833,14.18,96,0,1.07,AU,1723762970
145,sorab,14.3833,75.1,22.54,98,100,2.34,IN,1723762971
146,babu,24.4167,111.5167,24.68,98,100,0.71,CN,1723762972
147,ariquemes,-9.9133,-63.0408,29.91,35,2,0.65,BR,1723762799
148,hammerfest,70.6634,23.6821,19.25,72,40,4.63,NO,1723762975
149,huaidian,33.4333,115.0333,25.42,92,21,1.95,CN,1723762976
150,aral,40.5156,81.2636,28.61,31,71,2.74,CN,1723762979
151,stanley,54.868,-1.6985,10.66,83,0,3.09,GB,1723762980
152,salinopolis,-0.6136,-47.3561,26.65,79,1,6.25,BR,1723762983
153,priob'ye,62.5206,65.5964,10.55,95,75,1.26,RU,1723762984
154,abilene,32.4487,-99.7331,41.16,24,0,3.6,US,1723762803
155,nagqu,31.5,92.0,-1.37,73,16,0.98,CN,1723762986
156,magadan,59.5667,150.8,12.36,51,0,3.42,RU,1723762988
157,mahibadhoo,3.7833,72.9667,27.95,82,100,11.33,MV,1723762989
158,iawar,23.0,76.5,23.24,94,100,2.55,IN,1723762990
159,gaspe,48.8334,-64.4819,21.12,78,75,1.03,CA,1723762992
160,linghai,41.1653,121.3667,24.49,83,30,1.36,CN,1723762993
161,huanta,-12.9333,-74.25,22.22,35,6,3.88,PE,1723762994
162,talakan,50.3167,130.3667,21.19,89,21,2.6,RU,1723762995
163,kodinsk,58.6881,99.1844,13.59,73,1,1.63,RU,1723762996
164,sinop,41.7711,34.8709,13.64,88,0,0.7,TR,1723762998
165,aasiaat,68.7098,-52.8699,3.09,86,100,4.49,GL,1723762999
166,micheweni,-4.9667,39.8333,23.46,82,9,3.99,TZ,1723763000
167,yuzhno-kurilsk,44.0306,145.8556,17.79,87,100,4.17,RU,1723763001
168,boulder,40.0833,-105.3505,26.94,30,40,3.09,US,1723763003
169,badger,64.8,-147.5333,22.21,43,0,5.14,US,1723763004
170,lasem,-6.6922,111.4527,21.95,77,39,3.42,ID,1723763007
171,thompson,55.7435,-97.8558,24.09,64,100,5.14,CA,1723763008
172,newport,51.5877,-2.9984,18.06,91,100,2.7,GB,1723762722
173,shimabara,32.7833,130.3667,27.0,83,93,1.6,JP,1723763016
174,cheremukhovo,60.3484,59.9851,10.96,96,100,1.73,RU,1723763017
175,nuku'alofa,-21.1333,-175.2,21.19,78,75,7.2,TO,1723763018
176,ashburton,-37.8626,145.0794,16.58,75,100,2.68,AU,1723763021
177,klyuchi,52.2667,79.1667,17.35,83,100,5.37,RU,1723763023
178,gunjur,13.2019,-16.7339,26.41,84,64,6.47,GM,1723763024
179,tranqueras,-31.2,-55.75,15.17,90,28,1.17,UY,1723763011
180,zyrya,40.3661,50.2917,25.05,56,21,4.76,AZ,1723763028
181,tabou,4.423,-7.3528,23.69,86,24,2.66,CI,1723763029
182,constantia,44.1833,28.65,21.5,61,0,4.39,RO,1723763030
183,yelizovo,53.1873,158.3805,16.08,36,20,12.0,RU,1723763032
184,korla,41.7597,86.1469,27.52,33,67,1.82,CN,1723763033
185,santacruz,1.5209,-77.2621,22.75,40,40,8.75,CO,1723763037
186,cleethorpes,53.5605,-0.0323,17.96,94,100,3.6,GB,1723763038
187,boleslawiec,51.2642,15.5697,19.79,83,0,2.14,PL,1723763040
188,cururupu,-1.8283,-44.8683,22.66,86,3,1.06,BR,1723762994
189,tzucacab,20.0667,-89.05,30.13,65,85,2.46,MX,1723763043
190,luanda,-8.8368,13.2343,22.0,83,25,2.57,AO,1723762829
191,maholi,27.6667,80.4667,27.54,85,17,2.54,IN,1723763045
192,tolanaro,-25.0319,46.9987,18.04,82,20,1.03,MG,1723763051
193,alofi,-19.0595,-169.9187,21.94,53,100,8.23,NU,1723763053
194,qaqortoq,60.7167,-46.0333,8.31,66,0,7.29,GL,1723763055
195,latoma,-3.8604,122.0118,21.8,88,95,0.64,ID,1723763057
196,nar'yan-mar,67.6713,53.087,8.53,96,16,5.23,RU,1723763062
197,alva,56.1528,-3.8051,7.26,93,0,3.39,GB,1723763063
198,sitka,57.0531,-135.33,17.94,63,20,8.23,US,1723763066
199,patterson,37.4716,-121.1297,34.41,14,0,6.08,US,1723763067
200,iskateley,67.6803,53.1512,8.52,96,15,5.24,RU,1723763070
201,kualatungkal,-0.8167,103.4667,24.76,88,100,3.1,ID,1723763073
202,winnemucca,40.973,-117.7357,31.03,11,0,6.52,US,1723763074
203,kerikeri,-35.2268,173.9474,17.17,82,88,2.08,NZ,1723763075
204,tura,25.5198,90.2201,24.11,93,48,1.8,IN,1723763078
205,bazarak,35.3129,69.5152,16.34,58,0,5.15,AF,1723763079
206,alo,6.5486,4.2686,24.49,88,100,2.69,NG,1723763080
207,cine,37.6117,28.0614,23.67,30,0,0.72,TR,1723763082
208,eirunepe,-6.6603,-69.8736,28.89,45,27,2.16,BR,1723763083
209,luderitz,-26.6481,15.1594,14.45,58,0,0.98,NA,1723763087
210,ixtapa,20.7,-105.2,31.57,66,40,4.63,MX,1723763088
211,ebaye,8.7748,167.7392,28.01,89,0,5.14,MH,1723763089
212,barclayville,4.6797,-8.2339,23.36,85,34,2.04,LR,1723763091
213,gaiman,-43.2897,-65.4929,10.4,39,42,3.94,AR,1723762875
214,utrik,11.2278,169.8474,28.23,78,41,7.64,MH,1723763098
215,novoagansk,61.9449,76.6625,11.88,96,48,2.63,RU,1723763100
216,laascaanood,8.4774,47.3597,22.62,67,82,12.7,SO,1723763101
217,bardai,11.65,7.2333,21.6,94,100,4.68,NG,1723763104
218,springs,-26.25,28.4,11.48,14,2,1.41,ZA,1723763105
219,togur,58.3631,82.8265,14.76,73,74,2.6,RU,1723763106
220,kone,-21.0595,164.8658,26.94,49,0,4.25,NC,1723763108
221,tymovskoye,50.8456,142.655,17.03,70,100,0.97,RU,1723763109
222,anloga,5.7947,0.8973,24.51,84,38,5.96,GH,1723763111
223,papao,-17.75,-149.55,28.82,71,7,2.74,PF,1723763113
224,misratah,32.3754,15.0925,27.96,64,0,4.94,LY,1723763115
225,chandbali,20.7833,86.7667,26.44,91,100,2.9,IN,1723763118
226,kapenguria,1.2511,35.0895,13.83,86,87,1.51,KE,1723763121
227,mahanoro,-19.9,48.8,20.28,85,41,3.09,MG,1723763123
228,newman,37.3138,-121.0208,34.47,13,0,3.82,US,1723763124
229,vilyuysk,63.7553,121.6247,12.32,53,31,1.47,RU,1723763125
230,palmer,42.1584,-72.3287,23.62,70,59,3.09,US,1723762869
231,chemolgan,43.1897,76.5292,25.18,37,18,2.58,KZ,1723763129
232,tubarjal,30.4999,38.216,28.24,45,0,7.91,SA,1723763130
233,naze,28.3667,129.4833,26.51,79,81,0.95,JP,1723763131
234,linxi,39.7,118.4333,24.59,86,90,1.03,CN,1723763133
235,asau,46.4333,26.4,19.15,79,0,1.84,RO,1723763134
236,lorengau,-2.0226,147.2712,28.36,77,4,3.1,PG,1723763135
237,tual,-5.6667,132.75,25.18,81,40,7.63,ID,1723763139
238,chegdomyn,51.1167,133.0167,18.84,84,86,0.59,RU,1723763141
239,ialibu,-6.2821,143.9935,16.8,84,94,1.15,PG,1723763142
240,hithadhoo,-0.6,73.0833,28.83,76,78,10.89,MV,1723763146
241,sinabang,2.4803,96.3801,25.64,87,100,1.41,ID,1723763147
242,suomussalmi,64.8869,28.9078,16.9,77,100,2.41,FI,1723763150
243,arkhipo-osipovka,44.37,38.52,20.36,55,0,6.51,RU,1723763151
244,yaren,-0.5472,166.916,29.36,74,31,8.17,NR,1723763153
245,la'ie,21.6477,-157.9253,30.98,68,1,1.34,US,1723763155
246,dudinka,69.4058,86.1778,13.41,55,74,6.82,RU,1723763156
247,tindouf,27.6711,-8.1474,36.25,11,0,5.14,DZ,1723763157
248,zheleznodorozhnyy,55.7503,38.0042,12.75,60,6,2.69,RU,1723763159
249,mugia,43.1041,-9.2179,17.73,81,0,6.31,ES,1723763160
250,napanee,44.2501,-76.9494,27.02,64,0,4.18,CA,1723763161
251,kupang,-10.1667,123.5833,24.32,73,20,2.57,ID,1723763164
252,saint-pierre,-21.3393,55.4781,20.82,64,0,3.09,RE,1723763165
253,luanco,43.6152,-5.7934,19.05,87,0,2.12,ES,1723763167
254,bratsk,56.1325,101.6142,13.27,73,1,1.53,RU,1723763173
255,taltal,-25.4,-70.4833,14.64,83,39,1.48,CL,1723762883
256,lata,40.1629,-8.3327,16.48,62,0,0.84,PT,1723763176
257,aykhal,66.0,111.5,8.22,95,100,1.7,RU,1723763177
258,guarapari,-20.6667,-40.4975,20.67,83,0,4.49,BR,1723763178
259,nguigmi,14.2495,13.1092,24.66,84,78,3.66,NE,1723763179
260,imperatriz,-5.5264,-47.4917,28.67,28,0,2.26,BR,1723762584
261,yeppoon,-23.1333,150.7333,20.79,77,0,2.46,AU,1723763182
262,leticia,-4.2153,-69.9406,27.03,83,20,1.54,CO,1723763183
263,florencia,43.7667,11.25,27.28,68,0,0.51,IT,1723763185
264,beaufort,5.3473,115.7455,23.93,94,100,1.2,MY,1723763186
265,izberbash,42.5696,47.8645,22.97,50,4,1.39,RU,1723763187
266,vicam,27.6333,-110.2833,36.63,44,47,6.53,MX,1723763188
267,douglas,41.3,-96.167,28.61,57,0,4.63,US,1723763191
268,novodvinsk,64.4165,40.8122,5.86,77,0,2.26,RU,1723763192
269,ceeldheer,3.8488,47.1806,24.4,85,32,8.57,SO,1723763193
270,camana,-16.6228,-72.7111,16.04,83,7,3.95,PE,1723763197
271,grantsville,40.5999,-112.4644,32.94,14,0,4.92,US,1723763198
272,coquimbo,-29.9533,-71.3436,12.85,84,100,1.54,CL,1723763030
273,kyshtovka,56.555,76.6271,13.85,98,100,3.23,RU,1723763201
274,gundorovskiy,46.7805,41.8968,18.18,50,20,3.57,RU,1723763203
275,moss,59.434,10.6577,17.13,88,75,9.26,NO,1723763206
276,gadzhiyevo,69.2551,33.3362,15.56,75,68,4.9,RU,1723763207
277,mazatlan,23.2167,-106.4167,32.17,68,69,1.79,MX,1723762923
278,leava,-14.3,-178.1667,25.57,74,100,12.71,WF,1723763210
279,vredendal,-31.6683,18.5012,12.5,64,28,1.41,ZA,1723763212
280,toliara,-23.35,43.6667,18.88,70,0,7.02,MG,1723763214
281,mora,11.0461,14.1401,21.85,93,100,1.65,CM,1723763215
282,kapuskasing,49.4169,-82.4331,26.92,56,94,0.87,CA,1723763216
283,fortuna,40.5982,-124.1573,23.85,60,0,6.17,US,1723763217
284,farasan,16.7022,42.1183,30.65,80,26,6.47,SA,1723763219
285,usogorsk,63.4106,48.6872,13.05,81,100,4.49,RU,1723763220
286,touros,-5.1989,-35.4608,24.37,76,31,7.28,BR,1723763224
287,kendari,-3.945,122.4989,23.85,84,100,0.55,ID,1723763225
288,hanzhong,33.0728,107.0303,21.42,91,100,0.43,CN,1723763228
289,chibougamau,49.9168,-74.3659,26.79,44,0,2.57,CA,1723762936
290,howrah,22.5892,88.3103,28.0,94,40,2.06,IN,1723763230
291,jinchang,38.4953,102.1739,19.89,51,100,1.5,CN,1723763232
292,estevan,49.1334,-102.9842,29.01,30,88,8.69,CA,1723763233
293,maiyama,12.0841,4.3677,24.78,85,99,3.6,NG,1723763236
294,lufilufi,-13.8745,-171.5986,25.29,78,97,11.31,WS,1723763237
295,talara,-4.5772,-81.2719,20.42,77,0,6.17,PE,1723763238
296,amos,48.5669,-78.1162,25.82,57,38,0.34,CA,1723763240
297,pangody,65.85,74.4859,11.93,94,32,3.8,RU,1723763241
298,nurota,40.5614,65.6886,23.45,45,23,6.05,UZ,1723763242
299,hilo,19.7297,-155.09,26.73,93,100,5.66,US,1723763244
300,malabar,-33.9667,151.25,17.06,89,75,3.09,AU,1723763245
301,biloela,-24.4167,150.5,21.13,71,0,2.37,AU,1723763246
302,grossschonau,50.9,14.6833,19.88,84,1,0.78,DE,1723763247
303,suva,-18.1416,178.4415,24.71,65,75,8.23,FJ,1723763249
304,aoulef,26.9667,1.0833,37.8,11,38,3.61,DZ,1723763251
305,colorado,-22.8375,-51.9731,21.82,32,0,2.35,BR,1723763252
306,saudarkrokur,65.7461,-19.6394,8.33,97,88,2.61,IS,1723763254
307,bengkulu,-3.8004,102.2655,23.43,94,99,2.84,ID,1723763255
308,hollis,42.7431,-71.5917,19.79,91,65,0.45,US,1723763256
309,malakal,9.5334,31.6605,21.37,97,92,1.71,SS,1723763258
310,clodomira,-27.5744,-64.1311,22.06,26,2,3.52,AR,1723763259
311,bayanhongor,46.7167,100.1167,6.57,76,99,1.88,MN,1723763260
312,hazorasp,41.3194,61.0742,23.31,34,0,3.42,UZ,1723763261
313,portland,45.5234,-122.6762,25.74,57,40,3.09,US,1723762515
314,ostersund,63.1792,14.6357,16.45,74,75,6.17,SE,1723763265
315,lompoc,34.6391,-120.4579,21.4,69,0,3.13,US,1723763266
316,jackson,42.4165,-122.8345,27.23,39,0,1.54,US,1723763268
317,zelenoborskiy,66.845,32.3622,13.23,86,100,1.28,RU,1723763269
318,vizinga,61.0749,50.1031,11.73,97,100,5.05,RU,1723763270
319,santarem,-2.4431,-54.7083,27.07,78,0,2.06,BR,1723763273
320,regina,50.4501,-104.6178,26.66,44,17,6.71,CA,1723763278
321,terrace,54.5163,-128.6035,24.08,38,100,0.18,CA,1723763279
322,alotau,-10.3069,150.4462,27.05,81,83,1.64,PG,1723763281
323,tarko-sale,64.9225,77.785,12.4,94,15,3.83,RU,1723763282
324,clarinda,40.7419,-95.0383,28.89,70,40,2.06,US,1723763283
325,kerema,-7.9631,145.7785,26.21,85,23,3.11,PG,1723763285
326,susuman,62.7833,148.1667,9.94,49,11,0.76,RU,1723763286
327,saint-joseph,-21.3667,55.6167,20.21,82,4,2.3,RE,1723763288
328,carutapera,-1.195,-46.02,25.47,78,1,3.92,BR,1723763290
329,watampone,-4.5386,120.3279,24.04,85,32,2.03,ID,1723763291
330,fishtown,38.0695,-85.9175,31.88,59,0,3.09,US,1723763292
331,sandnessjoen,66.0217,12.6316,14.63,97,100,2.87,NO,1723763297
332,lucheng,31.2336,117.2806,26.09,91,0,2.16,CN,1723763115
333,xining,36.6167,101.7667,10.23,81,21,1.25,CN,1723763301
334,yarmouth,41.7057,-70.2286,19.52,91,100,4.12,US,1723763302
335,ceerigaabo,10.6162,47.368,20.73,53,53,8.21,SO,1723763305
336,mu'minobod,38.1085,70.0285,25.35,32,26,2.18,TJ,1723763306
337,bereznik,62.8551,42.7072,12.39,63,97,3.93,RU,1723763308
338,atakent,40.8464,68.5067,26.88,33,16,3.9,KZ,1723763309
339,paracuru,-3.41,-39.0306,25.7,74,38,6.81,BR,1723763310
340,manta,-0.95,-80.7333,24.88,73,0,7.2,EC,1723763311
341,mili,6.0815,171.735,28.93,76,93,7.75,MH,1723763313
342,kailua-kona,19.6406,-155.9956,30.98,69,20,4.63,US,1723763315
343,diadi,16.662,121.3658,24.16,90,99,0.95,PH,1723763317
344,guilin,25.2819,110.2864,23.58,98,100,1.17,CN,1723763318
345,santander,43.4647,-3.8044,19.14,84,0,0.89,ES,1723763319
346,daru,-9.0763,143.2092,26.99,79,86,5.47,PG,1723763320
347,derzhavinsk,51.1,66.3167,14.93,71,51,5.31,KZ,1723763322
348,andilamena,-17.0167,48.5833,13.47,91,35,2.78,MG,1723763323
349,bor,56.3567,44.0669,10.96,84,78,3.82,RU,1723763324
350,dingzhou,38.5131,114.9956,25.47,82,78,0.43,CN,1723763116
351,alaghsas,17.0187,8.0168,27.72,68,97,4.94,NE,1723763329
352,ceres,37.5949,-120.9577,33.95,27,0,5.14,US,1723763330
353,holualoa,19.6228,-155.9522,28.91,69,20,4.63,US,1723763332
354,along,28.1667,94.7667,21.07,98,99,0.83,IN,1723763233
355,pierre,44.3683,-100.351,31.51,39,0,6.26,US,1723763075
356,darwin,-12.4611,130.8418,23.99,78,20,2.57,AU,1723763337
357,belmonte,-15.8631,-38.8828,22.34,88,37,3.3,BR,1723763338
358,dolores,-36.3132,-57.6792,10.0,86,72,3.88,AR,1723763339
359,bathsheba,13.2167,-59.5167,28.34,83,40,5.14,BB,1723763341
360,maragogi,-9.0122,-35.2225,23.69,79,32,5.29,BR,1723763342
361,chamical,-30.36,-66.314,16.74,31,42,2.28,AR,1723763344
362,karratha,-20.7377,116.8463,21.87,33,0,3.63,AU,1723763347
363,fiditi,7.7136,3.9172,21.98,95,100,2.02,NG,1723763348
364,keelung,25.1283,121.7419,28.94,80,100,1.54,TW,1723763350
365,aksu,41.1231,80.2644,25.64,45,0,2.67,CN,1723763351
366,kalemie,-5.9475,29.1947,22.49,71,33,2.38,CD,1723763353
367,axim,4.8699,-2.2405,23.99,82,40,4.0,GH,1723763355
368,sandwip,22.4678,91.4561,27.54,88,100,10.7,BD,1723763356
369,codrington,-38.2667,141.9667,11.74,89,100,7.55,AU,1723763357
370,adrar,20.5022,-10.0711,35.13,30,37,4.62,MR,1723763359
371,bontang,0.1333,117.5,24.7,89,17,2.45,ID,1723763360
372,katsuren-haebaru,26.3369,127.8719,30.01,89,75,2.06,JP,1723763361
373,chitu,39.2033,117.4028,27.0,89,91,1.0,CN,1723763362
374,corcoran,36.098,-119.5604,36.16,10,0,4.9,US,1723763365
375,yuci,37.6803,112.7319,21.86,83,40,2.0,CN,1723763366
376,kiama,-34.6833,150.8667,16.81,92,47,1.34,AU,1723763367
377,kuanda,56.3161,116.0806,13.21,87,21,1.47,RU,1723763370
378,arno,60.1167,18.6333,18.57,78,99,4.77,SE,1723763372
379,mogocha,53.7333,119.7667,14.39,88,89,4.54,RU,1723763374
380,kurtamysh,54.9103,64.4319,12.87,87,94,0.76,RU,1723763375
381,cidreira,-30.1811,-50.2056,14.54,82,12,2.94,BR,1723763376
382,laporte,41.6106,-86.7225,22.21,90,100,4.63,US,1723763144
383,chonchi,-42.6128,-73.8092,7.29,95,47,0.57,CL,1723763379
384,qamdo,31.1667,97.2333,3.46,78,100,1.19,CN,1723763114
385,pucon,-39.2822,-71.9543,6.18,87,55,0.71,CL,1723763231
386,mhamid,29.82,-5.72,34.72,10,0,3.72,MA,1723763388
387,salalah,17.0151,54.0924,24.05,100,100,1.54,OM,1723763390
388,loreto,22.2667,-101.9667,26.02,36,96,7.3,MX,1723763391
389,zouerate,22.7187,-12.4521,33.72,16,1,4.04,MR,1723763394
390,sur,22.5667,59.5289,30.26,63,24,4.37,OM,1723763396
391,lucapa,-8.4192,20.7447,21.0,22,33,1.23,AO,1723763397
392,mahanje,-9.9333,35.3333,17.72,54,34,0.99,TZ,1723763399
393,mezhdurechenskiy,59.6,65.9333,10.26,97,64,2.21,RU,1723763402
394,lamira,40.0242,-80.9879,28.18,46,100,1.42,US,1723763403
395,chipinge,-20.1883,32.6236,14.5,90,49,3.42,ZW,1723763404
396,vorgashor,67.5833,63.95,11.69,92,61,5.81,RU,1723763405
397,bodaybo,57.8506,114.1933,14.26,85,63,0.52,RU,1723763407
398,oranjemund,-28.55,16.4333,12.52,81,8,2.5,NA,1723763408
399,madalena,41.2162,-8.3345,23.59,69,0,1.42,PT,1723763409
400,kesinga,20.2,83.2333,25.66,91,100,0.78,IN,1723763410
401,egilsstadir,65.2653,-14.3948,7.95,93,100,3.6,IS,1723763210
402,mejit,10.2753,170.8646,28.15,78,99,5.91,MH,1723763413
403,kalispell,48.1958,-114.3129,32.17,25,0,2.57,US,1723763416
404,panguipulli,-39.6333,-72.3333,4.44,97,22,0.92,CL,1723763419
405,horta,38.5333,-28.6333,23.34,86,10,3.13,PT,1723763423
406,tadmur,34.5608,38.2805,28.23,38,0,7.23,SY,1723763424
407,champerico,14.3,-91.9167,29.7,69,73,2.4,GT,1723763425
408,pisco,-13.7,-76.2167,17.03,77,0,6.17,PE,1723763427
409,castillos,-34.1667,-53.8333,9.89,81,64,0.78,UY,1723763428
410,marang,5.2056,103.2059,25.12,88,100,1.59,MY,1723763429
411,coyhaique,-45.5752,-72.0662,2.59,98,81,2.15,CL,1723763189
412,paros,37.0833,25.15,28.1,57,0,5.66,GR,1723763432
413,itoman,26.1247,127.6694,30.01,79,75,2.06,JP,1723763433
414,udi,6.3144,7.4258,21.14,96,100,1.88,NG,1723763434
415,gebeit,21.0667,36.3167,30.96,42,78,1.82,SD,1723763436
416,zhalantun,48.0,122.7167,21.04,79,21,1.71,CN,1723763437
417,sarapul,56.4763,53.7978,11.2,95,100,6.03,RU,1723763438
418,portonovo,44.532,11.752,24.99,74,67,2.34,IT,1723763442
419,lamu,-2.2717,40.902,24.19,79,76,7.07,KE,1723763443
420,umaria,23.5333,80.8333,23.81,93,97,1.63,IN,1723763446
421,haikou,20.0458,110.3417,27.53,85,100,3.1,CN,1723763447
422,beolgyo,34.8449,127.3429,26.22,88,71,1.42,KR,1723763450
423,tatsinskiy,48.1968,41.2756,16.2,54,22,1.94,RU,1723763451
424,kolondieba,11.0882,-6.8926,23.32,89,61,1.52,ML,1723763452
425,dubbo,-32.25,148.6167,13.07,100,100,0.51,AU,1723763454
426,vallenar,-28.5708,-70.7581,18.71,50,100,1.31,CL,1723763455
427,eastend,49.5167,-108.8181,26.43,23,0,4.37,CA,1723763456
428,greenwood,34.1668,-82.1165,29.34,64,0,0.0,US,1723763457
429,lappersdorf,49.0569,12.09,22.69,82,0,0.45,DE,1723763462
430,strazhitsa,43.2333,25.9667,23.89,66,0,2.78,BG,1723763463
431,semdinli,37.3051,44.5742,20.35,38,0,3.04,TR,1723763464
432,taulaga,-11.0553,-171.0883,26.36,83,95,10.05,AS,1723763465
433,malango,-2.9627,119.9001,19.16,87,14,0.71,ID,1723763467
434,brady,31.1352,-99.3351,37.25,26,20,2.57,US,1723763468
435,waingapu,-9.6567,120.2641,22.67,76,4,3.03,ID,1723763469
436,nuuk,64.1835,-51.7216,5.34,75,75,5.14,GL,1723763471
437,rabak,13.1809,32.74,23.72,84,43,3.07,SD,1723763474
438,aripuana,-9.1667,-60.6333,29.07,44,57,1.29,BR,1723763475
439,morlaix,48.5833,-4.0,19.18,94,100,7.2,FR,1723763476
440,dakhla,23.6848,-15.958,19.8,88,0,9.49,EH,1723763477
441,floro,61.5996,5.0328,12.98,88,75,8.23,NO,1723763485
442,silute,55.3489,21.4831,17.47,62,67,3.83,LT,1723763486
443,thiruvarur,10.7667,79.65,28.26,78,87,2.82,IN,1723763488
